[
  {
    "name": "Milan",
    "region": "Lombardy",
    "latitude": 45.46427,
    "longitude": 9.18951,
    "elevation": 122.0,
    "followers": 0,
    "lastUpdate": null,
    "eweThresholds": null,
    "lastEweUpdate": null,
    "_id": "lom-mil-45.4643-9.1895"
  },
  {
    "name": "Turin",
    "region": "Piedmont",
    "latitude": 45.07049,
    "longitude": 7.68682,
    "elevation": 239.0,
    "followers": 0,
    "lastUpdate": null,
    "eweThresholds": null,
    "lastEweUpdate": null,
    "_id": "pie-tur-45.0705-7.6868"
  },
  {
    "name": "Genoa",
    "region": "Liguria",
    "latitude": 44.40478,
    "longitude": 8.94439,
    "elevation": 19.0,
    "followers": 0,
    "lastUpdate": null,
    "eweThresholds": null,
    "lastEweUpdate": null,
    "_id": "lig-gen-44.4048-8.9444"
  },
  {
    "name": "Brescia",
    "region": "Lombardy",
    "latitude": 45.53558,
    "longitude": 10.21472,
    "elevation": 149.0,
    "followers": 0,
    "lastUpdate": null,
    "eweThresholds": null,
    "lastEweUpdate": null,
    "_id": "lom-bre-45.5356-10.2147"
  },
  {
    "name": "Bergamo",
    "region": "Lombardy",
    "latitude": 45.69601,
    "longitude": 9.66721,
    "elevation": 249.0,
    "followers": 0,
    "lastUpdate": null,
    "eweThresholds": null,
    "lastEweUpdate": null,
    "_id": "lom-ber-45.6960-9.6672"
  },
  {
    "name": "Verona",
    "region": "Veneto",
    "latitude": 45.4299,
    "longitude": 10.98444,
    "elevation": 59.0,
    "followers": 0,
    "lastUpdate": null,
    "eweThresholds": null,
    "lastEweUpdate": null,
    "_id": "ven-ver-45.4299-10.9844"
  },
  {
    "name": "Venice",
    "region": "Veneto",
    "latitude": 45.43713,
    "longitude": 12.33265,
    "elevation": 2.0,
    "followers": 0,
    "lastUpdate": null,
    "eweThresholds": null,
    "lastEweUpdate": null,
    "_id": "ven-ven-45.4371-12.3326"
  },
  {
    "name": "Padua",
    "region": "Veneto",
    "latitude": 45.40797,
    "longitude": 11.88586,
    "elevation": 12.0,
    "followers": 0,
    "lastUpdate": null,
    "eweThresholds": null,
    "lastEweUpdate": null,
    "_id": "ven-pad-45.4080-11.8859"
  },
  {
    "name": "Trieste",
    "region": "Friuli Venezia Giulia",
    "latitude": 45.64953,
    "longitude": 13.77678,
    "elevation": 2.0,
    "followers": 0,
    "lastUpdate": null,
    "eweThresholds": null,
    "lastEweUpdate": null,
    "_id": "fri-tri-45.6495-13.7768"
  },
  {
    "name": "Parma",
    "region": "Emilia-Romagna",
    "latitude": 44.79935,
    "longitude": 10.32618,
    "elevation": 57.0,
    "followers": 0,
    "lastUpdate": null,
    "eweThresholds": null,
    "lastEweUpdate": null,
    "_id": "emi-par-44.7993-10.3262"
  },
  {
    "name": "Modena",
    "region": "Emilia-Romagna",
    "latitude": 44.64783,
    "longitude": 10.92539,
    "elevation": 34.0,
    "followers": 0,
    "lastUpdate": null,
    "eweThresholds": null,
    "lastEweUpdate": null,
    "_id": "emi-mod-44.6478-10.9254"
  },
  {
    "name": "Bologna",
    "region": "Emilia-Romagna",
    "latitude": 44.49381,
    "longitude": 11.33875,
    "elevation": 54.0,
    "followers": 0,
    "lastUpdate": null,
    "eweThresholds": null,
    "lastEweUpdate": null,
    "_id": "emi-bol-44.4938-11.3387"
  },
  {
    "name": "Reggio Emilia",
    "region": "Emilia-Romagna",
    "latitude": 44.69825,
    "longitude": 10.63125,
    "elevation": 58.0,
    "followers": 0,
    "lastUpdate": null,
    "eweThresholds": null,
    "lastEweUpdate": null,
    "_id": "emi-reg-44.6983-10.6312"
  },
  {
    "name": "Trento",
    "region": "Trentino-Alto Adige",
    "latitude": 46.06787,
    "longitude": 11.12108,
    "elevation": 194.0,
    "followers": 0,
    "lastUpdate": null,
    "eweThresholds": null,
    "lastEweUpdate": null,
    "_id": "tre-tre-46.0679-11.1211"
  },
  {
    "name": "Bolzano",
    "region": "Trentino-Alto Adige",
    "latitude": 46.49067,
    "longitude": 11.33982,
    "elevation": 262.0,
    "followers": 0,
    "lastUpdate": null,
    "eweThresholds": null,
    "lastEweUpdate": null,
    "_id": "tre-bol-46.4907-11.3398"
  },
  {
    "name": "Aosta",
    "region": "Aosta Valley",
    "latitude": 45.73764,
    "longitude": 7.31722,
    "elevation": 583.0,
    "followers": 0,
    "lastUpdate": null,
    "eweThresholds": null,
    "lastEweUpdate": null,
    "_id": "aos-aos-45.7376-7.3172"
  },
  {
    "name": "Udine",
    "region": "Friuli Venezia Giulia",
    "latitude": 46.0693,
    "longitude": 13.23715,
    "elevation": 113.0,
    "followers": 0,
    "lastUpdate": null,
    "eweThresholds": null,
    "lastEweUpdate": null,
    "_id": "fri-udi-46.0693-13.2371"
  },
  {
    "name": "Piacenza",
    "region": "Emilia-Romagna",
    "latitude": 45.05242,
    "longitude": 9.69342,
    "elevation": 61.0,
    "followers": 0,
    "lastUpdate": null,
    "eweThresholds": null,
    "lastEweUpdate": null,
    "_id": "emi-pia-45.0524-9.6934"
  },
  {
    "name": "Cremona",
    "region": "Lombardy",
    "latitude": 45.13325,
    "longitude": 10.02129,
    "elevation": 45.0,
    "followers": 0,
    "lastUpdate": null,
    "eweThresholds": null,
    "lastEweUpdate": null,
    "_id": "lom-cre-45.1332-10.0213"
  },
  {
    "name": "La Spezia",
    "region": "Liguria",
    "latitude": 44.103,
    "longitude": 9.82375,
    "elevation": 3.0,
    "followers": 0,
    "lastUpdate": null,
    "eweThresholds": null,
    "lastEweUpdate": null,
    "_id": "lig-la -44.1030-9.8238"
  },
  {
    "name": "Florence",
    "region": "Tuscany",
    "latitude": 43.77925,
    "longitude": 11.24626,
    "elevation": 50.0,
    "followers": 0,
    "lastUpdate": null,
    "eweThresholds": null,
    "lastEweUpdate": null,
    "_id": "tus-flo-43.7792-11.2463"
  },
  {
    "name": "Pisa",
    "region": "Tuscany",
    "latitude": 43.70853,
    "longitude": 10.4036,
    "elevation": 4.0,
    "followers": 0,
    "lastUpdate": null,
    "eweThresholds": null,
    "lastEweUpdate": null,
    "_id": "tus-pis-43.7085-10.4036"
  },
  {
    "name": "Siena",
    "region": "Tuscany",
    "latitude": 43.31822,
    "longitude": 11.33064,
    "elevation": 322.0,
    "followers": 0,
    "lastUpdate": null,
    "eweThresholds": null,
    "lastEweUpdate": null,
    "_id": "tus-sie-43.3182-11.3306"
  },
  {
    "name": "Arezzo",
    "region": "Tuscany",
    "latitude": 43.46276,
    "longitude": 11.88068,
    "elevation": 296.0,
    "followers": 0,
    "lastUpdate": null,
    "eweThresholds": null,
    "lastEweUpdate": null,
    "_id": "tus-are-43.4628-11.8807"
  },
  {
    "name": "Prato",
    "region": "Tuscany",
    "latitude": 43.8805,
    "longitude": 11.09699,
    "elevation": 61.0,
    "followers": 0,
    "lastUpdate": null,
    "eweThresholds": null,
    "lastEweUpdate": null,
    "_id": "tus-pra-43.8805-11.0970"
  },
  {
    "name": "Livorno",
    "region": "Tuscany",
    "latitude": 43.54427,
    "longitude": 10.32615,
    "elevation": 3.0,
    "followers": 0,
    "lastUpdate": null,
    "eweThresholds": null,
    "lastEweUpdate": null,
    "_id": "tus-liv-43.5443-10.3262"
  },
  {
    "name": "Rome",
    "region": "Latium",
    "latitude": 41.89193,
    "longitude": 12.51133,
    "elevation": 20.0,
    "followers": 0,
    "lastUpdate": null,
    "eweThresholds": null,
    "lastEweUpdate": null,
    "_id": "lat-rom-41.8919-12.5113"
  },
  {
    "name": "Latina",
    "region": "Latium",
    "latitude": 41.46614,
    "longitude": 12.9043,
    "elevation": 21.0,
    "followers": 0,
    "lastUpdate": null,
    "eweThresholds": null,
    "lastEweUpdate": null,
    "_id": "lat-lat-41.4661-12.9043"
  },
  {
    "name": "Frosinone",
    "region": "Latium",
    "latitude": 41.63976,
    "longitude": 13.34109,
    "elevation": 291.0,
    "followers": 0,
    "lastUpdate": null,
    "eweThresholds": null,
    "lastEweUpdate": null,
    "_id": "lat-fro-41.6398-13.3411"
  },
  {
    "name": "Terni",
    "region": "Umbria",
    "latitude": 42.56335,
    "longitude": 12.64329,
    "elevation": 130.0,
    "followers": 0,
    "lastUpdate": null,
    "eweThresholds": null,
    "lastEweUpdate": null,
    "_id": "umb-ter-42.5633-12.6433"
  },
  {
    "name": "Perugia",
    "region": "Umbria",
    "latitude": 43.1122,
    "longitude": 12.38878,
    "elevation": 493.0,
    "followers": 0,
    "lastUpdate": null,
    "eweThresholds": null,
    "lastEweUpdate": null,
    "_id": "umb-per-43.1122-12.3888"
  },
  {
    "name": "Ancona",
    "region": "The Marches",
    "latitude": 43.5942,
    "longitude": 13.50337,
    "elevation": 16.0,
    "followers": 0,
    "lastUpdate": null,
    "eweThresholds": null,
    "lastEweUpdate": null,
    "_id": "the-anc-43.5942-13.5034"
  },
  {
    "name": "Ascoli Piceno",
    "region": "The Marches",
    "latitude": 42.85351,
    "longitude": 13.57395,
    "elevation": 154.0,
    "followers": 0,
    "lastUpdate": null,
    "eweThresholds": null,
    "lastEweUpdate": null,
    "_id": "the-asc-42.8535-13.5739"
  },
  {
    "name": "Pesaro",
    "region": "The Marches",
    "latitude": 43.90921,
    "longitude": 12.9164,
    "elevation": 11.0,
    "followers": 0,
    "lastUpdate": null,
    "eweThresholds": null,
    "lastEweUpdate": null,
    "_id": "the-pes-43.9092-12.9164"
  },
  {
    "name": "Naples",
    "region": "Campania",
    "latitude": 40.85216,
    "longitude": 14.26811,
    "elevation": 17.0,
    "followers": 0,
    "lastUpdate": null,
    "eweThresholds": null,
    "lastEweUpdate": null,
    "_id": "cam-nap-40.8522-14.2681"
  },
  {
    "name": "Salerno",
    "region": "Campania",
    "latitude": 40.67545,
    "longitude": 14.79328,
    "elevation": 4.0,
    "followers": 0,
    "lastUpdate": null,
    "eweThresholds": null,
    "lastEweUpdate": null,
    "_id": "cam-sal-40.6754-14.7933"
  },
  {
    "name": "Caserta",
    "region": "Campania",
    "latitude": 41.07262,
    "longitude": 14.33231,
    "elevation": 68.0,
    "followers": 0,
    "lastUpdate": null,
    "eweThresholds": null,
    "lastEweUpdate": null,
    "_id": "cam-cas-41.0726-14.3323"
  },
  {
    "name": "Bari",
    "region": "Apulia",
    "latitude": 41.12066,
    "longitude": 16.86982,
    "elevation": 5.0,
    "followers": 0,
    "lastUpdate": null,
    "eweThresholds": null,
    "lastEweUpdate": null,
    "_id": "apu-bar-41.1207-16.8698"
  },
  {
    "name": "Lecce",
    "region": "Apulia",
    "latitude": 40.35481,
    "longitude": 18.17244,
    "elevation": 49.0,
    "followers": 0,
    "lastUpdate": null,
    "eweThresholds": null,
    "lastEweUpdate": null,
    "_id": "apu-lec-40.3548-18.1724"
  },
  {
    "name": "Brindisi",
    "region": "Apulia",
    "latitude": 40.63215,
    "longitude": 17.93607,
    "elevation": 13.0,
    "followers": 0,
    "lastUpdate": null,
    "eweThresholds": null,
    "lastEweUpdate": null,
    "_id": "apu-bri-40.6322-17.9361"
  },
  {
    "name": "Taranto",
    "region": "Apulia",
    "latitude": 40.46438,
    "longitude": 17.24707,
    "elevation": 15.0,
    "followers": 0,
    "lastUpdate": null,
    "eweThresholds": null,
    "lastEweUpdate": null,
    "_id": "apu-tar-40.4644-17.2471"
  },
  {
    "name": "Foggia",
    "region": "Apulia",
    "latitude": 41.45845,
    "longitude": 15.55188,
    "elevation": 76.0,
    "followers": 0,
    "lastUpdate": null,
    "eweThresholds": null,
    "lastEweUpdate": null,
    "_id": "apu-fog-41.4584-15.5519"
  },
  {
    "name": "Potenza",
    "region": "Basilicate",
    "latitude": 40.64175,
    "longitude": 15.80794,
    "elevation": 819.0,
    "followers": 0,
    "lastUpdate": null,
    "eweThresholds": null,
    "lastEweUpdate": null,
    "_id": "bas-pot-40.6418-15.8079"
  },
  {
    "name": "Matera",
    "region": "Basilicate",
    "latitude": 40.66599,
    "longitude": 16.60463,
    "elevation": 401.0,
    "followers": 0,
    "lastUpdate": null,
    "eweThresholds": null,
    "lastEweUpdate": null,
    "_id": "bas-mat-40.6660-16.6046"
  },
  {
    "name": "Catanzaro",
    "region": "Calabria",
    "latitude": 38.88247,
    "longitude": 16.60086,
    "elevation": 320.0,
    "followers": 0,
    "lastUpdate": null,
    "eweThresholds": null,
    "lastEweUpdate": null,
    "_id": "cal-cat-38.8825-16.6009"
  },
  {
    "name": "Reggio Calabria",
    "region": "Calabria",
    "latitude": 38.11047,
    "longitude": 15.66129,
    "elevation": 31.0,
    "followers": 0,
    "lastUpdate": null,
    "eweThresholds": null,
    "lastEweUpdate": null,
    "_id": "cal-reg-38.1105-15.6613"
  },
  {
    "name": "Cosenza",
    "region": "Calabria",
    "latitude": 39.2989,
    "longitude": 16.25307,
    "elevation": 238.0,
    "followers": 0,
    "lastUpdate": null,
    "eweThresholds": null,
    "lastEweUpdate": null,
    "_id": "cal-cos-39.2989-16.2531"
  },
  {
    "name": "Campobasso",
    "region": "Molise",
    "latitude": 41.55947,
    "longitude": 14.66737,
    "elevation": 701.0,
    "followers": 0,
    "lastUpdate": null,
    "eweThresholds": null,
    "lastEweUpdate": null,
    "_id": "mol-cam-41.5595-14.6674"
  },
  {
    "name": "Palermo",
    "region": "Sicily",
    "latitude": 38.13205,
    "longitude": 13.33561,
    "elevation": 14.0,
    "followers": 0,
    "lastUpdate": null,
    "eweThresholds": null,
    "lastEweUpdate": null,
    "_id": "sic-pal-38.1320-13.3356"
  },
  {
    "name": "Catania",
    "region": "Sicily",
    "latitude": 37.49223,
    "longitude": 15.07041,
    "elevation": 7.0,
    "followers": 0,
    "lastUpdate": null,
    "eweThresholds": null,
    "lastEweUpdate": null,
    "_id": "sic-cat-37.4922-15.0704"
  },
  {
    "name": "Messina",
    "region": "Sicily",
    "latitude": 38.19394,
    "longitude": 15.55256,
    "elevation": 3.0,
    "followers": 0,
    "lastUpdate": null,
    "eweThresholds": null,
    "lastEweUpdate": null,
    "_id": "sic-mes-38.1939-15.5526"
  },
  {
    "name": "Syracuse",
    "region": "Sicily",
    "latitude": 37.07542,
    "longitude": 15.28664,
    "elevation": 17.0,
    "followers": 0,
    "lastUpdate": null,
    "eweThresholds": null,
    "lastEweUpdate": null,
    "_id": "sic-syr-37.0754-15.2866"
  },
  {
    "name": "Trapani",
    "region": "Sicily",
    "latitude": 38.0176,
    "longitude": 12.53617,
    "elevation": 3.0,
    "followers": 0,
    "lastUpdate": null,
    "eweThresholds": null,
    "lastEweUpdate": null,
    "_id": "sic-tra-38.0176-12.5362"
  },
  {
    "name": "Agrigento",
    "region": "Sicily",
    "latitude": 37.31065,
    "longitude": 13.57661,
    "elevation": 230.0,
    "followers": 0,
    "lastUpdate": null,
    "eweThresholds": null,
    "lastEweUpdate": null,
    "_id": "sic-agr-37.3107-13.5766"
  },
  {
    "name": "Cagliari",
    "region": "Sardinia",
    "latitude": 39.23054,
    "longitude": 9.11917,
    "elevation": 6.0,
    "followers": 0,
    "lastUpdate": null,
    "eweThresholds": null,
    "lastEweUpdate": null,
    "_id": "sar-cag-39.2305-9.1192"
  },
  {
    "name": "Sassari",
    "region": "Sardinia",
    "latitude": 40.72586,
    "longitude": 8.55552,
    "elevation": 225.0,
    "followers": 0,
    "lastUpdate": null,
    "eweThresholds": null,
    "lastEweUpdate": null,
    "_id": "sar-sas-40.7259-8.5555"
  },
  {
    "name": "Olbia",
    "region": "Sardinia",
    "latitude": 40.92337,
    "longitude": 9.49802,
    "elevation": 15.0,
    "followers": 0,
    "lastUpdate": null,
    "eweThresholds": null,
    "lastEweUpdate": null,
    "_id": "sar-olb-40.9234-9.4980"
  },
  {
    "name": "Nuoro",
    "region": "Sardinia",
    "latitude": 40.31991,
    "longitude": 9.32568,
    "elevation": 549.0,
    "followers": 0,
    "lastUpdate": null,
    "eweThresholds": null,
    "lastEweUpdate": null,
    "_id": "sar-nuo-40.3199-9.3257"
  },
  {
    "name": "L\u2019Aquila",
    "region": "Abruzzo",
    "latitude": 42.35055,
    "longitude": 13.39954,
    "elevation": 714.0,
    "followers": 0,
    "lastUpdate": null,
    "eweThresholds": null,
    "lastEweUpdate": null,
    "_id": "abr-l\u2019a-42.3505-13.3995"
  },
  {
    "name": "Rimini",
    "region": "Emilia-Romagna",
    "latitude": 44.05755,
    "longitude": 12.56528,
    "elevation": 5.0,
    "followers": 0,
    "lastUpdate": null,
    "eweThresholds": null,
    "lastEweUpdate": null,
    "_id": "emi-rim-44.0575-12.5653"
  }
]